City,Cloudiness,Country,Date,Humidity,Lat,Lng,Max Temp,Wind Speed
Krasnyye Baki,0,RU,1554195600,75,57.131,45.1599,40.84,4.16
Albany,0,US,1554195600,56,42.6512,-73.755,20.73,4.05
Busselton,0,AU,1554195600,83,-33.6445,115.3489,76.93,13.22
Kavieng,56,PG,1554195600,96,-2.5745,150.7967,85.21,8.97
Narsaq,100,GL,1554195600,90,60.9127,-46.0453,32.56,14
Khatanga,92,RU,1554195600,93,71.9801,102.4743,26.08,15.12
Jeremie,0,HT,1554195600,97,18.65,-74.1167,75.58,7.74
Butaritari,100,KI,1554195600,98,3.0707,172.7902,84.58,10.42
Bluff,36,AU,1554195600,41,-23.58,149.0661,79.54,10.42
Byron Bay,88,AU,1554195600,100,-28.65,153.6167,70.26,11.43
Golyshmanovo,0,RU,1554195600,96,56.3979,68.3728,35.53,6.4
Isla Mujeres,0,MX,1554195600,99,21.2311,-86.7311,74.91,3.83
Portland,92,US,1554195600,76,45.5202,-122.6742,52.25,1.81
Vaini,0,IN,1554195600,29,15.336,74.4926,109.06,5.61
Jamestown,0,AU,1554195600,57,-33.2075,138.6035,64.42,1.03
Punta Arenas,8,CL,1554195600,89,-53.1627,-70.9081,49.42,25.19
Sorland,80,NO,1554195600,95,67.667,12.6934,40.74,26.08
Puerto Ayora,76,EC,1554195600,100,-0.7394,-90.3518,77.47,2.26
Port Macquarie,88,AU,1554195600,84,-31.43,152.9104,71.07,8.52
Neuquen,0,AR,1554195600,50,-38.9517,-68.0591,70.56,15.23
Solnechnyy,56,RU,1554195600,69,50.7238,136.6401,29.59,3.15
Ushuaia,76,AR,1554195600,100,-54.807,-68.3074,47.32,4.61
Diamantino,8,BR,1554195600,91,-14.4037,-56.4365,72.07,3.6
Mehamn,80,NO,1554195600,88,71.035,27.8517,32.36,13.67
Bedesa,0,ET,1554195600,30,8.9,40.7833,82.78,4.38
Oum Hadjer,0,TD,1554195600,21,13.2954,19.6966,94.39,11.43
Lakes Entrance,36,AU,1554195600,86,-37.8795,147.9944,65.41,7.18
Avera,92,US,1554195600,89,33.194,-82.5271,45.21,5.84
Mataura,76,NZ,1554195600,69,-46.1928,168.8643,49.83,4.94
Esperance,92,TT,1554195600,84,10.2447,-61.4506,76.2,5.73
Formosa do Rio Preto,76,BR,1554195600,93,-11.0415,-45.1904,68.38,4.61
Bredasdorp,36,ZA,1554195600,84,-34.5331,20.0428,67.44,19.04
Ancud,64,CL,1554195600,95,-41.8682,-73.8288,50.46,3.71
Grindavik,0,IS,1554195600,100,63.8424,-22.4338,33.27,22.28
Atuona,64,PF,1554195600,99,-9.8,-139.0334,82.6,12.44
Viedma,48,AR,1554195600,36,-40.8086,-62.9947,72.16,13.56
Sabang,12,PH,1554195600,73,13.7234,123.5828,82.69,9.53
Thongwa,0,MM,1554195600,55,16.7608,96.5237,97.29,7.4
Torbay,20,CA,1554195600,95,47.6577,-52.727,29.76,25.41
Tvoroyri,0,FO,1554195600,100,61.5556,-6.8111,40.92,11.21
Castro,80,CL,1554195600,97,-42.4824,-73.7644,52.62,4.72
Hobart,24,AU,1554195600,58,-42.8826,147.3281,55.95,5.28
Isangel,64,VU,1554195600,100,-19.55,169.2667,82.13,14.67
Yerbogachen,80,RU,1554195600,58,61.2767,108.0108,33.55,11.54
Trairi,56,BR,1554195600,100,-3.278,-39.2679,79.63,5.95
Souillac,24,FR,1554195600,80,45.6006,-0.6,57.52,9.75
Hithadhoo,0,MV,1554195600,100,-0.6,73.0833,84.4,9.86
High Prairie,32,CA,1554195600,82,55.4325,-116.4837,25.81,3.15
Upernavik,0,GL,1554195600,96,72.7868,-56.1549,5.92,7.29
Kruisfontein,20,ZA,1554195600,78,-34.0034,24.7314,61.45,4.16
Lazaro Cardenas,8,MX,1554195600,65,28.3905,-105.6235,50.14,2.37
Bartoszyce,0,PL,1554195600,60,54.2524,20.8144,45.88,17.02
Madridejos,12,ES,1554195600,87,39.4697,-3.5355,57.76,4.5
Sao Joao da Barra,0,BR,1554195600,100,-21.6403,-41.0512,75.4,9.53
Kungurtug,64,RU,1554195600,49,50.5987,97.5254,44.26,4.27
Kapaa,24,US,1554195600,100,22.0752,-159.319,66.65,6.96
Saint-Philippe,36,CA,1554195600,78,45.3584,-73.4791,27.14,9.19
Hermanus,0,ZA,1554195600,51,-34.4176,19.2361,76.71,9.53
Berlevag,88,NO,1554195600,100,70.8578,29.0864,30.75,15.68
Mweka,24,CD,1554195600,67,-4.8477,21.5612,88.09,3.94
Kodiak,56,US,1554195600,63,39.9519,-94.7572,41.52,11.65
Rikitea,12,PF,1554195600,100,-23.1203,-134.9692,75.94,13.44
Foumban,36,CM,1554195600,29,5.7282,10.8972,86.38,3.38
Chokurdakh,56,RU,1554195600,78,70.6192,147.9022,7.09,10.31
Mount Isa,0,AU,1554195600,41,-20.729,139.4932,82.81,11.99
Kaeo,20,NZ,1554195600,76,-35.1018,173.7751,58.02,10.2
Georgetown,0,GY,1554195600,84,6.8026,-58.1629,73.32,4.61
Arraial do Cabo,44,BR,1554195600,100,-22.9663,-42.0245,71.98,2.71
Yellowknife,20,CA,1554195600,74,62.4541,-114.3774,5.55,15.01
Mujiayingzi,0,CN,1554195600,33,42.1167,118.7833,42.73,7.96
Kaitangata,92,NZ,1554195600,68,-46.2818,169.8464,51.18,7.07
Eston,64,CA,1554195600,66,51.1494,-108.7531,32.28,10.87
Salvador,88,BR,1554195600,100,-12.9823,-38.4813,79.81,14.23
Great Bend,32,US,1554195600,64,38.3622,-98.7804,38.28,4.38
Ahipara,12,NZ,1554195600,95,-35.1665,173.1562,61.27,11.77
Manjeshwar,0,IN,1554195600,74,12.7194,74.8861,90.51,13
Karratha,0,AU,1554195600,20,-20.7371,116.8479,99.52,9.31
Cuiaba,24,BR,1554195600,92,-15.5962,-56.0967,75.76,3.15
Carnarvon,0,ZA,1554195600,33,-30.9678,22.1333,63.34,8.08
Pearl,0,US,1554195600,84,32.2746,-90.1321,43.57,5.73
New Norfolk,20,AU,1554195600,84,-42.7802,147.0615,49.89,3.27
Sitka,20,US,1554195600,74,37.175,-99.6516,35.71,2.59
Kedrovyy,48,RU,1554195600,50,56.1667,91.8167,49.64,9.64
Wamba,8,CD,1554195600,75,2.1435,27.9939,83.32,2.93
Tierralta,92,CO,1554195600,93,8.1717,-76.0594,76.84,5.95
Lebu,8,ET,1554195600,36,8.9611,38.7254,75.7,8.63
Tasiilaq,88,GL,1554195600,100,65.6145,-37.6368,25.2,10.42
Kita,0,JP,1554195600,55,35.7558,139.7367,46.26,11.77
Libreville,44,GA,1554195600,100,0.39,9.454,81.6,4.16
Westport,68,IE,1554195600,97,53.8001,-9.5203,42.36,18.7
Camden,24,US,1554195600,54,39.9448,-75.1199,26.89,3.94
Gamba,44,CN,1554195600,76,28.2785,88.5182,24.55,5.17
Fortuna,20,ES,1554195600,100,38.1801,-1.126,58.91,3.83
Nabire,88,ID,1554195600,96,-3.3597,135.505,69.46,1.92
Nanortalik,88,GL,1554195600,94,60.1432,-45.2372,33.73,36.15
Tura,92,IN,1554195600,100,25.5174,90.2067,69.01,3.6
Manzhouli,12,CN,1554195600,15,49.6,117.4333,46.51,12.88
Planaltina,64,BR,1554195600,90,-15.6182,-47.6556,64.95,2.59
Seoul,32,KR,1554195600,33,37.5667,126.9783,48.25,9.75
Am Timan,0,TD,1554195600,15,11.0396,20.2826,96.91,11.99
Sao Filipe,36,CV,1554195600,100,14.8961,-24.4956,69.91,13.11
Lima,76,PE,1554195600,89,-12.0622,-77.0366,67.15,0.92
Luderitz,0,NA,1554195600,89,-26.6481,15.1594,61.99,10.87
Kuvshinovo,44,RU,1554195600,63,57.0315,34.1797,41.38,9.19
Cobija,36,BR,1554195600,93,-11.0232,-68.7656,76.21,2.15
Anjozorobe,8,MG,1554195600,69,-18.4006,47.8822,84.87,2.93
Dikson,68,RU,1554195600,100,73.5069,80.5464,24.01,26.42
Rongcheng,0,CN,1554195600,35,37.1614,122.4178,52.89,3.6
Smithers,0,CA,1554195600,69,54.783,-127.1703,23.91,1.81
Serafimovich,24,RU,1554195600,47,49.5806,42.7302,55.05,10.09
Mikuni,76,JP,1554195600,91,36.2171,136.1519,43.14,8.97
Jalu,0,LY,1554195600,42,29.0331,21.5482,72.61,9.64
Otradnoye,0,RU,1554195600,84,59.7727,30.802,41.83,9.86
Kankon,0,IN,1554195600,100,15.0167,74.0167,88.11,10.87
Richards Bay,92,ZA,1554195600,96,-28.7745,32.0555,64.96,10.42
Pisco,24,PE,1554195600,94,-13.71,-76.203,65.05,1.7
Lompoc,56,US,1554195600,100,34.6392,-120.458,53.83,3.15
Ardrossan,32,GB,1554195600,100,55.6472,-4.8115,41.1,6.4
Sain Alto,8,MX,1554195600,31,23.5833,-103.25,43.99,6.96
Pombia,64,IT,1554195600,40,45.6508,8.6323,66.07,5.5
Longyearbyen,24,NO,1554195600,99,78.2198,15.6349,15.4,2.37
Obo,12,CF,1554195600,100,5.3941,26.4927,83.68,5.73
Langsa,64,ID,1554195600,69,4.4731,97.9682,83.23,2.93
Port Alfred,64,ZA,1554195600,91,-33.5906,26.891,66.4,2.93
Sokoni,0,CD,1554195600,70,-12.8902,28.7793,80.17,5.06
Saint-Louis,20,CH,1554195600,66,47.586,7.5616,59.2,3.15
Harper,0,US,1554195600,57,30.2999,-99.2443,41.37,9.86
Nuuk,92,GL,1554195600,92,64.175,-51.7356,42.85,13
Kokstad,80,ZA,1554195600,77,-30.5476,29.4244,57.49,3.38
Thompson,80,CA,1554195600,63,55.7433,-97.8635,19.95,10.54
Pulandian,0,CN,1554195600,16,39.4007,121.9642,50.37,17.69
Saskylakh,76,RU,1554195600,93,71.965,114.0939,31.39,10.76
Tiksi,0,RU,1554195600,71,71.6366,128.8685,19.06,2.93
Wanning,56,AT,1554195600,77,48.6402,13.529,54.1,3.15
Tenenkou,0,ML,1554195600,35,14.4583,-4.9148,87.73,15.68
Mombetsu,8,JP,1554195600,100,44.3525,143.3525,27.72,0.58
Rawson,0,AR,1554195600,37,-43.2992,-65.1057,68.29,24.52
Lerwick,88,GB,1554195600,100,60.1545,-1.1495,41.37,7.52
Norman Wells,48,CA,1554195600,81,65.2824,-126.8328,14.88,5.84
Avarua,20,CK,1554195600,100,-21.2078,-159.775,80.97,16.8
Kerman,92,IR,1554195600,36,30.2924,57.0647,67.24,9.64
Tuy Hoa,36,VN,1554195600,81,13.0833,109.3,81.7,8.97
Jackson,0,US,1554195600,63,35.6144,-88.8178,38.98,2.71
Cape Town,0,ZA,1554195600,82,-33.929,18.4174,66.63,22.5
Bayshore Gardens,88,US,1554195600,100,27.4253,-82.5904,66.66,4.38
Dindori,0,IN,1554195600,20,22.9447,81.0775,95.56,12.21
Port Hedland,0,AU,1554195600,38,-20.3112,118.5801,91.77,11.21
Severo-Kurilsk,76,RU,1554195600,100,50.6789,156.125,30.58,10.76
Sumkino,0,RU,1554195600,72,58.1108,68.3244,38.23,10.2
Barrow,0,AR,1554195600,82,-38.3131,-60.2291,69.46,14.9
Hilo,64,US,1554195600,100,19.7072,-155.0817,73.23,5.39
Hualmay,76,PE,1554195600,96,-11.0968,-77.613,64.87,1.92
Pevek,24,RU,1554195600,72,69.7028,170.2747,24.64,19.04
Ampanihy,0,MG,1554195600,48,-24.6942,44.7477,87.01,4.83
Cherskiy,92,RU,1554195600,79,68.75,161.3,28.78,5.17
Yumen,12,CN,1554195600,23,40.2917,97.0449,61.54,9.19
Iqaluit,36,CA,1554195600,66,63.7494,-68.5219,-3.19,11.99
Mar del Plata,0,AR,1554195600,52,-46.4276,-67.5191,61.63,25.41
Poste de Flacq,80,MU,1554195600,84,-20.1631,57.7306,82.87,7.18
Virginia Beach,44,US,1554195600,82,36.853,-75.9775,40.05,8.41
Grand Gaube,68,MU,1554195600,100,-20.0064,57.6608,85.57,6.62
Nepa Nagar,0,IN,1554195600,21,21.4667,76.4,102.67,5.73
Guerrero Negro,8,MX,1554195600,89,27.971,-114.0364,51.91,2.93
Pacific Grove,80,US,1554195600,100,36.6174,-121.9156,52.79,2.37
Haines Junction,0,CA,1554195600,77,60.7527,-137.5101,14.92,1.81
Ixtapa,0,MX,1554195600,90,20.715,-105.2067,65.91,2.15
Bathsheba,56,BB,1554195600,100,13.2167,-59.5167,77.64,18.03
Menongue,0,AO,1554195600,26,-14.6611,17.682,87.55,4.94
Margate,12,AU,1554195600,95,-43.0274,147.2623,51.93,3.38
East London,68,ZA,1554195600,100,-33.0153,27.9116,65.13,2.48
Anamur,0,TR,1554195600,89,36.0751,32.8369,61.2,7.63
Ilulissat,64,GL,1554195600,74,69.2167,-51.1,18.93,4.27
Dhrol,0,IN,1554195600,61,22.5676,70.4164,89.8,8.3
Yar-Sale,44,RU,1554195600,92,66.8333,70.8333,26.53,15.68
Bay Roberts,56,CA,1554195600,75,47.5759,-53.2834,30.29,23.06
Angoche,24,MZ,1554195600,100,-16.2293,39.9081,80.53,10.09
Porto Novo,44,BR,1554195600,100,-23.6775,-45.4418,62.33,2.93
Lae,88,PG,1554195600,96,-6.7221,146.9847,77.59,1.48
Pangoa,80,PE,1554195600,97,-12.1167,-73,64.6,1.59
Agadez,0,NE,1554195600,18,16.9726,7.9907,96.22,10.65
Dudinka,36,RU,1554195600,91,69.4061,86.1751,25.81,12.33
Zwedru,80,LR,1554195600,100,6.0687,-8.1343,74.95,4.38
Saint-Joseph,88,FR,1554195600,42,43.5562,6.9715,61.02,1.14
Rio Gallegos,20,AR,1554195600,84,-51.6227,-69.2182,52.7,34.69
Talnakh,20,RU,1554195600,83,69.494,88.3908,24.91,6.62
Katsuura,92,JP,1554195600,81,33.9258,134.505,48.63,7.74
Robertsport,76,LR,1554195600,100,6.7526,-11.367,78.37,5.5
Makat,92,KZ,1554195600,97,47.6469,53.3463,46.33,22.06
Qaanaaq,0,GL,1554195600,78,77.484,-69.3633,-8.49,10.42
Aginskoye,0,RU,1554195600,22,51.1072,114.5443,52.81,15.35
Savasleyka,0,RU,1554195600,54,55.4573,42.3187,45.16,6.85
Tessalit,0,ML,1554195600,24,20.2009,1.014,83.77,9.98
Skjervoy,92,NO,1554195600,100,70.0311,20.9714,31.47,2.71
Victoria,0,BN,1554195600,95,5.2785,115.2423,86.99,13.11
Bumba,68,CD,1554195600,86,2.1837,22.4665,81.07,3.94
Kahului,48,US,1554195600,99,20.8894,-156.4728,69.27,5.39
Padang,92,ID,1554195600,100,-0.9248,100.3633,82.83,3.71
Broome,48,GB,1554195600,74,52.4688,1.4544,51.26,7.52
Paamiut,92,GL,1554195600,79,61.994,-49.6678,37.33,56.51
Nikolskoye,0,RU,1554195600,84,59.7035,30.7861,42.03,9.86
Flin Flon,32,CA,1554195600,58,54.7698,-101.879,22.12,12.21
Poya,68,NC,1554195600,98,-21.3464,165.1591,78.91,12.33
Codrington,88,AU,1554195600,94,-28.9484,153.2428,63.96,5.06
Alto Araguaia,24,BR,1554195600,80,-17.3157,-53.217,70.27,1.14
Marfino,8,RU,1554195600,78,56.0719,37.5614,43.61,7.52
Mama,0,MX,1554195600,79,20.4768,-89.3649,74.4,1.92
Port Hardy,0,CA,1554195600,77,50.6996,-127.4199,42.45,2.37
Hasaki,24,JP,1554195600,100,35.7333,140.8333,51.75,19.82
Wilson,48,US,1554195600,65,35.7213,-77.9156,34.35,6.51
Geraldton,12,CA,1554195600,77,49.7189,-86.9494,26.55,7.63
Mahibadhoo,0,MV,1554195600,100,3.7833,72.9667,83.59,4.5
Yunhe,88,CN,1554195600,71,28.1188,119.5688,57.76,2.26
Juanjui,8,PE,1554195600,94,-7.1779,-76.7314,70.9,1.59
Laguna,8,MX,1554195600,74,27.5185,-110.0074,57.49,2.48
Mersing,64,MY,1554195600,87,2.4276,103.8364,84.31,6.62
Kamaishi,8,JP,1554195600,63,39.2793,141.864,34.8,13.11
Emerald,32,AU,1554195600,41,-23.5264,148.1619,78.63,10.09
Hanna,0,CA,1554195600,66,51.6429,-111.927,28.77,6.62
Oranjemund,0,ZA,1554195600,90,-28.552,16.4284,59.11,12.77
Kawalu,92,ID,1554195600,91,-7.3817,108.2082,71.53,2.71
Dunmore Town,0,BS,1554195600,100,25.5,-76.6501,75.22,10.76
Ouro Preto do Oeste,44,BR,1554195600,87,-10.7481,-62.2159,74.41,2.15
Bosaso,0,SO,1554195600,82,11.2785,49.18,90.25,3.94
Kaseda,68,JP,1554195600,100,31.4167,130.3167,59.1,19.71
Imbituba,8,BR,1554195600,96,-28.24,-48.6703,73.77,12.21
Flinders,0,AU,1554195600,82,-34.581,150.846,63.64,4.5
Spirit River,92,CA,1554195600,71,55.7775,-118.8377,30.63,3.6
General Roca,0,AR,1554195600,50,-39.0267,-67.5755,70.56,15.23
Kudahuvadhoo,0,MV,1554195600,100,2.6708,72.8944,83.23,6.4
Nakhon Phanom,44,LA,1554195600,82,17.3957,104.7879,84.88,4.61
Gemena,88,CD,1554195600,83,3.2549,19.7751,78.19,2.93
Solok,32,ID,1554195600,72,-0.7923,100.6573,84.02,4.5
Yangjiang,0,CN,1554195600,96,21.8526,111.9594,74.49,16.35
Okhotsk,56,RU,1554195600,78,59.3644,143.2411,28.69,2.71
Vila Franca do Campo,76,PT,1554195600,100,37.7167,-25.4334,59.19,25.19
Kodinsk,36,RU,1554195600,44,58.5963,99.1829,40.57,7.85
Ilhabela,0,BR,1554195600,100,-23.7781,-45.3581,75.13,5.73
Koumac,68,NC,1554195600,94,-20.5614,164.2812,75.76,4.72
Buala,92,SB,1554195600,100,-8.1456,159.593,78.37,6.17
Elko,92,US,1554195600,68,40.8324,-115.7632,40.01,3.49
Suntar,68,RU,1554195600,84,62.1575,117.6463,36.52,9.31
Beringovskiy,92,RU,1554195600,95,63.05,179.3167,29.23,8.75
Touros,76,BR,1554195600,100,-5.1989,-35.4609,75.48,6.96
Jumla,0,NP,1554195600,65,29.2754,82.1825,45.34,1.48
Ribeira Grande,32,PT,1554195600,100,38.5167,-28.7001,58.92,21.5
Ostrovnoy,0,RU,1554195600,90,68.0544,39.5129,27.43,13.78
Luoyang,80,CN,1554195600,33,34.6557,112.421,65.86,6.06
Nazarovo,44,RU,1554195600,58,56.0116,90.4185,48.22,14.23
Barcelos,0,PT,1554195600,77,41.5314,-8.6193,59.27,1.92
Yulara,0,AU,1554195600,10,-25.2411,130.9869,83.19,5.17
Digby,0,CA,1554195600,86,44.6194,-65.7586,32.73,11.77
Cabo San Lucas,20,MX,1554195600,100,22.8938,-109.9112,70.08,6.62
Cayenne,20,GF,1554195600,83,4.9371,-52.3259,78.63,7.52
Tuktoyaktuk,64,CA,1554195600,83,69.444,-133.032,11.68,18.14
Zhigansk,36,RU,1554195600,69,66.7656,123.3741,31.84,7.29
Kibre Mengist,0,ET,1554195600,28,5.873,38.995,82.69,5.17
Arlit,0,NE,1554195600,39,18.7391,7.3933,88.63,4.72
Te Anau,0,NZ,1554195600,93,-45.4145,167.7175,36.34,2.59
Vao,24,EE,1554195600,75,59.1018,26.1904,37.51,7.63
Zhezkazgan,8,KZ,1554195600,76,47.8043,67.7144,55.81,13.78
Bogorodskoye,56,RU,1554195600,62,52.371,140.4412,28.69,2.59
Mathbaria,12,BD,1554195600,53,22.2876,89.9593,91.96,12.77
Balkanabat,8,TM,1554195600,74,39.5089,54.3631,53.98,8.41
Doha,88,QA,1554195600,49,25.2856,51.5264,79.08,8.97
Ayagoz,20,KZ,1554195600,61,47.9649,80.4301,57.31,4.38
Caravelas,0,BR,1554195600,100,-17.7297,-39.2661,80.26,6.29
Naze,0,NG,1554195600,91,5.4333,7.0667,85.84,7.63
Ankang,92,CN,1554195600,93,32.733,108.9904,47.68,2.15
Beboto,32,TD,1554195600,52,8.2668,16.939,88.81,6.85
Kasongo,48,CD,1554195600,54,-4.427,26.6662,87.55,3.15
Pangkalanbuun,56,ID,1554195600,95,-2.6834,111.6167,79.18,5.73
Praia da Vitoria,80,PT,1554195600,100,38.7333,-27.0667,58.47,23.29
Torrington,56,US,1554195600,78,42.0625,-104.1844,27.79,2.93
Itupiranga,76,BR,1554195600,99,-5.1338,-49.3322,75.97,4.38
Necochea,36,AR,1554195600,84,-38.5473,-58.7368,68.56,13.33
Kailua,0,US,1554195600,90,21.3936,-157.7438,67.02,5.39
Yerofey Pavlovich,8,RU,1554195600,27,53.9667,121.9667,41.29,7.18
Kurchum,0,KZ,1554195600,78,48.5722,83.6542,59.92,3.94
Mackay,0,CA,1554195600,78,53.65,-115.5834,26.43,3.27
Bethel,32,US,1554195600,76,60.7922,-161.7559,31.56,4.16
Agadir,80,MA,1554195600,74,30.4211,-9.5831,60.21,3.49
Tautira,80,PF,1554195600,100,-17.7334,-149.15,82.41,1.36
Blythe,48,US,1554195600,39,33.6135,-114.5938,61.47,3.27
Bani Walid,12,LY,1554195600,60,31.757,13.9951,65.05,17.25
Lagoa,12,PT,1554195600,74,37.1363,-8.4541,64.06,4.16
Faanui,76,PF,1554195600,97,-16.4834,-151.75,85.84,8.19
Potchefstroom,0,ZA,1554195600,59,-26.7078,27.0958,71.89,13.22
Lazdijai,0,LT,1554195600,64,54.2348,23.5113,54.97,9.98
Teahupoo,80,PF,1554195600,100,-17.8334,-149.2667,82.41,1.36
Neftcala,0,AZ,1554195600,100,39.3742,49.2472,56.95,2.59
Novyy Urgal,20,RU,1554195600,57,51.0736,132.5642,32.56,7.4
Deputatskiy,0,RU,1554195600,70,69.3,139.9,11.86,5.39
Korem,0,ET,1554195600,51,12.5075,39.5223,76.75,3.38
Crestview,24,US,1554195600,100,30.7621,-86.5706,53.43,3.49
Pringsewu,64,ID,1554195600,71,-5.3555,104.9774,83.86,3.71
Balabac,44,PH,1554195600,98,7.9868,117.0645,83.86,8.19
Bonavista,20,CA,1554195600,89,48.6542,-53.1104,29.94,30.56
Osmena,0,PH,1554195600,71,12.1709,124.5883,82.6,11.21
Provideniya,32,RU,1554195600,96,64.4238,-173.2276,25,9.31
Nioro,0,GM,1554195600,37,13.7912,-15.0495,82.6,17.02
Nosy Varika,8,MG,1554195600,76,-20.5834,48.5333,87.46,4.38
Andra,36,RU,1554195600,80,62.516,65.8862,32.47,14.79
Daru,76,SL,1554195600,87,7.9915,-10.846,80.62,4.16
Jodhpur,0,IN,1554195600,21,26.2968,73.0351,101.5,6.06
Pasighat,92,IN,1554195600,99,28.0594,95.3326,57.13,1.92
Ballina,20,IE,1554195600,97,54.1143,-9.1533,41.82,15.79
Ahuimanu,0,US,1554195600,90,21.4447,-157.8378,67.02,5.39
Muroto,20,JP,1554195600,100,33.3739,134.1415,55.2,6.73
Rayadrug,8,IN,1554195600,31,14.7,76.8667,97.99,4.72
Wajima,92,JP,1554195600,91,37.4,136.9,41.55,10.98
Mahebourg,80,MU,1554195600,84,-20.4081,57.7,83.3,7.18
Airai,68,TL,1554195600,76,-8.9266,125.4092,76.03,1.59
Chimore,100,BO,1554195600,95,-16.9834,-65.1334,73.24,2.71
Mayo,0,CA,1554195600,67,63.5927,-135.8962,20.13,2.37
Calvia,36,ES,1554195600,91,39.5657,2.5062,59.28,10.2
Cidreira,8,BR,1554195600,94,-30.1658,-50.2184,66.13,5.61
Edd,12,ER,1554195600,50,13.9297,41.6925,87.91,2.48
Arman,88,RU,1554195600,80,59.7,150.1667,29.86,5.73
Shu,0,KZ,1554195600,46,43.5983,73.7614,61.18,5.73
Santa catarina de Tepehuanes,0,MX,1554195600,78,25.3409,-105.7233,36.25,2.37
Smidovich,24,RU,1554195600,28,48.5957,133.8138,40.66,7.96
Bambanglipuro,92,ID,1554195600,85,-7.95,110.2833,79.9,4.38
Orlik,0,RU,1554195600,61,52.5132,99.827,35.35,4.72
Ngunguru,20,NZ,1554195600,100,-35.6167,174.5,65.76,17.81
Vorukh,12,KG,1554195600,93,39.8531,70.5669,35.71,1.7
Gat,0,SN,1554195600,60,14.6934,-16.5351,73.17,16.69
Luwuk,80,ID,1554195600,100,-0.9504,122.7886,78.64,2.59
Saint-Augustin,0,FR,1554195600,73,44.8323,-0.6091,63.21,8.08
Camacha,80,PT,1554195600,100,33.0833,-16.3334,58.65,3.27
Dano,0,BF,1554195600,41,11.1436,-3.0638,91.06,11.54
Mangrol,0,IN,1554195600,22,25.3307,76.512,106.05,7.07
Jiujiang,100,CN,1554195600,100,29.7275,115.9913,53.8,13.67
Annau,12,TM,1554195600,44,37.8876,58.516,73.62,13.78
Port Elizabeth,24,US,1554195600,64,39.3134,-74.9811,28.98,4.38
Clyde River,44,CA,1554195600,71,70.4692,-68.5915,-0.05,4.94
Chuy,32,UY,1554195600,94,-33.6938,-53.4562,64.6,6.17
Tongchuan,88,CN,1554195600,48,34.9035,108.9462,65.16,2.26
Tavares,56,BR,1554195600,91,-7.6365,-37.8787,64.51,2.71
Ibra,0,OM,1554195600,37,22.6896,58.547,91.42,3.83
Adrar,24,DZ,1554195600,33,27.8734,-0.2875,76.89,11.54
Tilichiki,76,RU,1554195600,90,60.4667,166.1,33.64,11.65
Kiama,0,AU,1554195600,82,-34.6719,150.8554,63.61,4.5
Kavaratti,8,IN,1554195600,100,10.5669,72.642,83.14,8.63
Guerande,92,FR,1554195600,80,48.4706,-4.167,49.02,18.14
Chabahar,20,IR,1554195600,72,25.2933,60.6471,83.5,6.73
Buraydah,0,SA,1554195600,16,26.3317,43.9717,86.86,14.79
Gizo,12,IL,1554195600,91,31.8041,34.9381,64.96,5.39
Kutum,0,SD,1554195600,19,14.2031,24.6617,83.86,10.76
Nyazepetrovsk,92,RU,1554195600,80,56.0555,59.5986,41.02,3.71
Constitucion,0,MX,1554195600,66,23.9912,-104.675,46.94,4.94
Okakarara,32,NA,1554195600,82,-20.5904,17.4582,71.89,4.72
Sovetsk,0,RU,1554195600,66,55.078,21.8913,47.05,9.98
Nome,8,US,1554195600,91,30.0358,-94.4244,36.64,3.49
Lavrentiya,48,RU,1554195600,86,65.5842,-170.989,21.94,6.17
Chara,0,GR,1554195600,36,39.4167,22.4309,71.38,7.63
Hofn,0,IS,1554195600,100,64.2539,-15.2082,35.71,29.89
Sabha,0,LY,1554195600,62,27.0332,14.4317,67.39,7.4
Todos Santos,48,MX,1554195600,100,23.4501,-110.2254,65.67,6.17
Tommot,56,RU,1554195600,56,58.9685,126.2669,31.39,2.48
San Quintin,80,PH,1554195600,89,17.5427,120.5203,73.51,2.82
Rorvik,44,NO,1554195600,98,64.8621,11.2373,40.03,7.74
Kemlya,0,RU,1554195600,92,54.6942,45.2439,37.06,10.54
Port Lincoln,0,AU,1554195600,68,-34.7212,135.8592,70.18,10.54
Jiwani,0,PK,1554195600,38,25.05,61.7417,95.65,10.54
Dingle,8,PH,1554195600,61,11.0001,122.6718,84.49,12.55
Gornopravdinsk,0,RU,1554195600,68,60.0603,69.9229,36.61,13.11
Glencoe,80,ZA,1554195600,86,-28.1739,30.1647,59.83,3.6
Basco,20,US,1554195600,69,40.3278,-91.2002,36.54,10.42
Kautokeino,12,NO,1554195600,79,69.0125,23.0412,32.38,5.39
Marsh Harbour,0,BS,1554195600,100,26.5383,-77.0611,73.78,10.76
Healesville,0,AU,1554195600,73,-37.6538,145.5162,66.69,3.71
Skibbereen,8,IE,1554195600,94,51.55,-9.2667,45.33,17.02
Erzin,24,TR,1554195600,92,36.9536,36.2023,63.43,3.94
General Cepeda,0,MX,1554195600,82,25.3791,-101.4762,40.14,2.71
Bubaque,0,GW,1554195600,100,11.2833,-15.8334,78.64,13.78
Huilong,92,CN,1554195600,95,28.8896,110.183,57.04,4.94
Tatarbunary,0,UA,1554195600,59,45.8401,29.6167,48.94,18.25
Skibotn,92,NO,1554195600,100,69.3913,20.2679,34.88,2.04
Durban,48,FR,1554195600,79,43.5384,0.5783,57.43,5.95
Japura,8,ID,1554195600,59,-0.4162,102.2923,89.98,2.15
Redcliffe,92,GB,1554195600,94,51.4502,-2.5877,42.54,13.78
Lumut,68,ID,1554195600,95,-8.4576,120.3414,75.04,1.36
Gravdal,68,NO,1554195600,93,59.7913,5.7785,43.93,4.5
Longonjo,0,AO,1554195600,48,-12.9073,15.2489,82.83,3.71
Xining,64,CN,1554195600,20,36.6219,101.773,50.11,7.18
Sal Rei,20,CV,1554195600,97,16.1833,-22.9167,69.54,15.12
Dubai,76,AE,1554195600,65,25.2684,55.2962,87.37,4.38
Omsukchan,36,RU,1554195600,86,62.5333,155.8,21.49,3.49
Bonfim,0,BR,1554195600,98,-20.3269,-44.2386,61.92,4.16
Boa Vista,0,BR,1554195600,62,2.8213,-60.6724,79.8,12.77
Srednekolymsk,80,RU,1554195600,83,67.4555,153.7071,18.79,2.37
Sur,0,OM,1554195600,74,22.5702,59.5299,83.95,0.69
Klaksvik,68,FO,1554195600,100,62.2266,-6.5891,39.3,13
Haguenau,48,FR,1554195600,70,48.8172,7.7886,62.15,4.61
Fare,88,PF,1554195600,98,-16.7001,-151.0167,84.31,3.71
Linares,0,CL,1554195600,66,-35.846,-71.5982,45.34,1.92
Adoni,0,IN,1554195600,18,15.6253,77.2731,103.66,5.28
Ponta do Sol,8,BR,1554195600,93,-20.6335,-45.9989,59.11,1.92
Olavarria,44,AR,1554195600,95,-36.8928,-60.3226,66.75,6.73
Baykit,80,RU,1554195600,76,61.6784,96.3854,30.76,9.31
Senanga,0,ZM,1554195600,32,-16.1041,23.3018,91.06,8.75
Pfarrkirchen,44,DE,1554195600,75,48.4341,12.9397,54.48,4.38
Ayan,32,TR,1554195600,47,40.6712,33.598,47.59,3.71
Vila,88,IT,1554195600,44,45.1829,8.402,65.86,3.6
Royan,32,FR,1554195600,87,45.6245,-1.0288,55.23,13.67
Vardo,32,US,1554195600,49,39.6165,-77.7392,30.81,5.06
Vung Tau,0,VN,1554195600,85,10.3486,107.0765,85.48,15.57
Morwell,20,AU,1554195600,68,-38.2366,146.3994,64.72,3.38
Nouadhibou,0,MR,1554195600,95,20.931,-17.0347,64.24,8.52
Walvis Bay,0,NA,1554195600,100,-22.9544,14.5075,64.86,8.3
Victoria,0,BN,1554195600,95,5.2785,115.2423,86.99,13.11
Lasa,64,CY,1554195600,93,34.9245,32.5278,62.46,6.4
Los Llanos de Aridane,92,ES,1554195600,100,28.6585,-17.9183,57.48,10.09
Cockburn Town,12,TC,1554195600,100,21.4612,-71.1419,76.57,16.8
Hohhot,0,CN,1554195600,19,40.8106,111.6522,60.04,4.05
Bambous Virieux,80,MU,1554195600,84,-20.3428,57.7575,83.28,7.18
South River,56,CA,1554195600,75,47.5363,-53.2692,30.29,23.06
Picota,12,PE,1554195600,95,-6.9203,-76.3304,69.73,0.58
Zhangye,8,CN,1554195600,71,38.9365,100.4556,55.15,4.38
Nurlat,80,RU,1554195600,98,54.4297,50.802,36.16,8.63
Mbuji-Mayi,8,CD,1554195600,59,-6.1259,23.5998,91.63,8.08
Bontang,24,ID,1554195600,89,0.1237,117.4717,84.76,4.83
Coahuayana,0,MX,1554195600,71,18.6201,-100.3453,52.18,1.59
La Orilla,0,MX,1554195600,100,17.9994,-102.2268,63.43,2.82
Pokhara,8,NP,1554195600,82,28.2095,83.9914,64.15,2.37
Indianola,20,US,1554195600,84,40.2358,-100.4182,31.02,3.6
Dickinson,0,US,1554195600,81,46.8792,-102.7897,32.04,13.78
Charlestown,0,US,1554195600,100,41.3832,-71.6418,33.72,3.6
Saldanha,8,PT,1554195600,53,41.4184,-6.5524,56.41,3.94
Saint-Pierre,76,FR,1554195600,58,48.9455,4.2446,56.34,9.53
San Isidro,44,PH,1554195600,58,16.7353,121.6307,83.32,7.18
Port-de-Bouc,88,FR,1554195600,100,43.4031,4.9807,55.32,5.84
Burnie,0,AU,1554195600,100,-41.0524,145.9064,62.16,9.75
Erenhot,0,CN,1554195600,32,43.6511,111.9704,56.5,8.63
Svetlogorsk,80,RU,1554195600,73,53.1375,59.1545,48.75,4.72
Namibe,0,AO,1554195600,98,-15.1902,12.1531,80.8,5.28
Maniitsoq,92,GL,1554195600,88,65.4167,-52.9001,25.18,8.75
Abu Dhabi,88,AE,1554195600,67,24.4748,54.3706,85.19,3.49
Rio Bonito,0,BR,1554195600,93,-22.7109,-42.6272,69.75,2.71
Innisfail,0,CA,1554195600,81,52.0201,-113.9495,24.84,3.6
Sisimiut,68,GL,1554195600,93,66.9395,-53.6735,13.39,5.5
Belyy Yar,32,RU,1554195600,53,53.6039,91.3903,59.95,7.96
Shitanjing,24,CN,1554195600,13,39.2342,106.3439,59.92,3.71
Kroya,80,ID,1554195600,93,-6.495,108.0629,78.64,2.04
Labuhan,12,ID,1554195600,73,-2.5409,115.5092,82.51,2.82
Kholmogory,44,RU,1554195600,72,64.227,41.6512,36.03,6.96
Ust-Uda,0,RU,1554195600,53,54.1748,103.0282,42.73,4.61
Komsomolskiy,80,RU,1554195600,98,67.5537,63.776,26.98,14.45
Dnestrovsc,0,MD,1554195600,35,46.6222,29.9133,50.88,17.47
Poso,24,ID,1554195600,100,-1.4012,120.7496,81.52,2.71
Gazojak,48,TM,1554195600,61,41.1875,61.4036,70.54,11.77
Bantul,92,ID,1554195600,85,-7.8878,110.3274,86.63,4.38
Phetchabun,36,TH,1554195600,73,16.4165,101.1595,88.65,2.59
Coquimbo,88,CL,1554195600,100,-29.9532,-71.3381,59.1,1.36
Bilma,0,NE,1554195600,22,18.6929,12.9187,88.18,9.98
Carballo,88,ES,1554195600,97,43.2134,-8.6889,52.99,3.38
Suwalki,0,PL,1554195600,59,54.1118,22.9309,53.78,11.65
Barre,0,US,1554195600,62,44.1975,-72.5023,20.58,3.15
Lalibela,20,ET,1554195600,58,12.0356,39.0462,70.27,2.71
Toguchin,0,RU,1554195600,90,55.2377,84.4025,46.87,22.73
Galle,0,US,1554195600,74,29.7383,-97.9142,35.7,2.93
Kjopsvik,92,NO,1554195600,100,68.097,16.3742,37.74,15.46
Cuddapah,8,IN,1554195600,21,14.4667,78.8167,103.38,3.94
Onokhino,0,RU,1554195600,84,56.925,65.5394,41.81,6.62
Dali,0,CN,1554195600,59,25.6024,100.2449,62.89,5.95
Mikhaylovsk,48,RU,1554195600,56,56.4445,59.1242,41.74,2.93
Kotri,0,PK,1554195600,21,25.3635,68.3069,105.91,7.18
Quelimane,20,MZ,1554195600,70,-17.8776,36.8902,88.59,6.73
Obala,20,CM,1554195600,76,4.1657,11.5346,82.99,7.74
Tolosa,8,ES,1554195600,91,43.1386,-2.0724,53.71,2.93
Martapura,64,ID,1554195600,93,-3.4055,114.8478,83.5,4.5
Humboldt,24,CA,1554195600,65,52.2059,-105.1172,22.93,11.43
Penzance,68,GB,1554195600,100,50.1213,-5.533,46.23,19.15
Klyuchi,0,RU,1554195600,46,52.2549,79.1714,60.01,11.1
Wattegama,44,LK,1554195600,84,7.3513,80.6826,79.81,4.5
Kieta,92,PG,1554195600,100,-6.2167,155.6333,77.2,4.27
Ashland,64,US,1554195600,65,38.4784,-82.638,30.12,2.37
Severnyy-Kospashskiy,0,RU,1554195600,83,59.0925,57.8008,36.34,8.19
Takoradi,0,GH,1554195600,91,4.8874,-1.752,84.49,4.72
Sinnamary,36,GF,1554195600,96,5.3772,-52.9574,79.45,10.31
Zhirnovsk,92,RU,1554195600,100,50.9788,44.7789,43.81,10.2
Sambava,20,MG,1554195600,100,-14.2667,50.1667,84.67,9.42
Hare Bay,20,CA,1554195600,76,48.8649,-53.9932,27.95,26.75
Mutis,92,CO,1554195600,100,6.2262,-77.4044,73.24,2.04
Vincennes,36,US,1554195600,65,38.6773,-87.5287,32.63,4.16
Saint George,0,GR,1554195600,36,39.4548,22.34,71.42,7.63
Naberera,12,TZ,1554195600,90,-4.2,36.9333,75.4,4.38
Lorengau,68,PG,1554195600,93,-2.0226,147.2712,84.13,10.76
La Ronge,36,CA,1554195600,49,55.1004,-105.3013,20.4,8.41
Buin,0,CL,1554195600,77,-33.732,-70.742,60.15,3.6
Pocone,12,BR,1554195600,91,-16.2567,-56.6228,74.5,2.93
Muscat,0,OM,1554195600,65,23.5998,58.5451,94.59,2.71
San Patricio,48,PY,1554195600,91,-26.9767,-56.8274,67.03,2.15
Natal,48,BR,1554195600,99,-5.8054,-35.2081,74.4,5.73
Vestmannaeyjar,0,IS,1554195600,99,63.4427,-20.2734,33.09,20.83
Timizart,8,DZ,1554195600,76,36.7978,4.2462,58.48,2.59
Miri,0,NG,1554195600,21,10.3127,9.7453,89.17,7.74
Santiago,0,CL,1554195600,77,-33.4378,-70.6505,59.5,3.6
Avdon,64,IL,1554195600,93,33.0478,35.1789,59.29,4.61
Verkhnyaya Inta,80,RU,1554195600,70,65.9884,60.3234,28.15,10.98
Hambantota,0,LK,1554195600,93,6.1241,81.1185,90.79,6.73
Meulaboh,48,ID,1554195600,100,4.1363,96.1285,82.33,1.92
Shimanovsk,0,RU,1554195600,33,52.0006,127.6716,39.22,7.29
Ranfurly,8,CA,1554195600,76,53.4085,-111.6805,24.91,9.98
Severomuysk,68,RU,1554195600,71,56.1721,113.5746,20.86,3.71
Nantucket,0,US,1554195600,100,41.2835,-70.0995,37.68,2.93
Paragominas,68,BR,1554195600,97,-2.9957,-47.3549,73.42,2.82
Marsa Matruh,32,EG,1554195600,59,31.3525,27.2453,71.26,7.18
Nanlong,32,CN,1554195600,83,31.3475,106.0519,62.26,7.4
Puerto Colombia,76,CO,1554195600,93,10.9891,-74.9555,77.19,7.18
Roald,88,NO,1554195600,80,62.5838,6.1242,40.92,2.48
Palmer,24,US,1554195600,78,61.5996,-149.1111,25.52,1.7
Conceicao da Barra,24,BR,1554195600,100,-18.5934,-39.7323,76.3,5.28
Mandan,24,US,1554195600,82,46.8264,-100.8898,29.73,10.54
Iroquois,56,US,1554195600,72,40.8275,-87.582,36.57,10.65
Garden City,0,US,1554195600,93,40.7266,-73.6344,31.01,7.18
Vostok,64,RU,1554195600,50,46.448,135.8294,29.23,4.16
Iquique,68,CL,1554195600,100,-20.2209,-70.1431,67.15,3.94
Pula,80,EC,1554195600,92,-1.95,-79.9334,75.24,2.59
Tazovskiy,92,RU,1554195600,100,67.4667,78.7,26.53,4.61
Mantua,76,IT,1554195600,46,45.1567,10.7917,69.17,6.17
Godfrey,36,US,1554195600,69,38.9556,-90.1868,35.6,8.97
Verkhnevilyuysk,20,RU,1554195600,55,63.4499,120.3137,38.14,7.63
Samarai,64,PG,1554195600,100,-10.6167,150.6667,81.43,11.21
Smirnykh,36,RU,1554195600,72,49.7424,142.832,23.56,5.73
Lawrence,44,US,1554195600,63,38.9719,-95.236,40.95,11.99
Begamganj,0,IN,1554195600,22,23.6,78.3333,99.43,6.29
Yelatma,0,RU,1554195600,77,54.9675,41.7508,41.29,11.32
La Rioja,0,AR,1554195600,93,-29.4128,-66.8559,66.31,2.93
Chapais,64,CA,1554195600,88,49.7839,-74.8569,19.86,5.95
Sitamau,0,IN,1554195600,23,24.0149,75.3512,100.24,8.19
Kontagora,0,NG,1554195600,28,10.3999,5.4695,91.96,10.2
Ruteng,68,ID,1554195600,95,-8.6111,120.4646,75.04,1.36
Saint Petersburg,0,RU,1554195600,84,59.9387,30.3162,42.03,9.86
Sovetskiy,0,RU,1554195600,96,56.763,48.4743,33.64,5.73
Mildura,0,AU,1554195600,69,-34.1848,142.1625,70.41,2.37
Lishui,92,CN,1554195600,68,28.4531,119.9095,56.86,2.15
Emba,64,CY,1554195600,93,34.8083,32.425,62.46,6.4
Sulangan,8,PH,1554195600,100,11.1373,123.7228,79.9,4.72
Petauke,0,ZM,1554195600,51,-14.2502,31.3331,86.29,6.4
Riyadh,88,SA,1554195600,26,24.632,46.7151,80.51,10.2
Melton,0,AU,1554195600,57,-37.6836,144.5828,66.16,7.96
Bilibino,68,RU,1554195600,79,68.055,166.4449,29.5,5.84
Great Yarmouth,44,GB,1554195600,92,52.6083,1.7305,45.6,8.97
Parabel,32,RU,1554195600,83,58.7137,81.5018,37.96,17.02
Vilyuysk,24,RU,1554195600,54,63.7541,121.6265,38.68,7.4
Russell,8,AR,1554195600,69,-33.0055,-68.7969,59.18,5.17
Magadan,56,RU,1554195600,88,59.5605,150.7989,32.29,7.96
San Vicente,88,SV,1554195600,91,13.6433,-88.7837,74.61,1.92
Keuruu,56,FI,1554195600,65,62.258,24.7084,40.6,7.74
Fairbanks,0,US,1554195600,77,64.8378,-147.7167,28.99,4.16
Carmen,92,PH,1554195600,70,7.2045,124.7954,83.59,2.71
